{
"type": "FeatureCollection",
"name": "Accessible_Parking_Spaces_SDCC",
"crs": { "type": "name", "properties": { "name": "urn:ogc:def:crs:OGC:1.3:CRS84" } },
"features": [
{ "type": "Feature", "properties": { "OBJECTID": 1, "Park_ID": 145, "Location": "Clondalkin Civic Offices", "Road_Name": "Ninth Lock Road", "No_Of_Spaces": 2, "Space_Type": "Surface", "Longitude": -6.395088, "Latitude": 53.323914 }, "geometry": { "type": "Point", "coordinates": [ -6.395088, 53.323914000000102 ] } },
{ "type": "Feature", "properties": { "OBJECTID": 2, "Park_ID": 146, "Location": "Clondalkin Village", "Road_Name": "Tower Road", "No_Of_Spaces": 2, "Space_Type": "On Street", "Longitude": -6.394906, "Latitude": 53.320736 }, "geometry": { "type": "Point", "coordinates": [ -6.394906, 53.320736000000103 ] } },
{ "type": "Feature", "properties": { "OBJECTID": 3, "Park_ID": 147, "Location": "Lucan Village", "Road_Name": "Dispensary Lane", "No_Of_Spaces": 1, "Space_Type": "On Street", "Longitude": -6.449594, "Latitude": 53.356914 }, "geometry": { "type": "Point", "coordinates": [ -6.449594, 53.356914000000103 ] } },
{ "type": "Feature", "properties": { "OBJECTID": 4, "Park_ID": 148, "Location": "Lucan Village", "Road_Name": "Main Street", "No_Of_Spaces": 1, "Space_Type": "On Street", "Longitude": -6.44855, "Latitude": 53.358573 }, "geometry": { "type": "Point", "coordinates": [ -6.44855, 53.358573 ] } },
{ "type": "Feature", "properties": { "OBJECTID": 5, "Park_ID": 149, "Location": "Liffey Valley Shopping Centre", "Road_Name": "Liffey Valley Yellow Car Park", "No_Of_Spaces": 11, "Space_Type": "Surface", "Longitude": -6.392823, "Latitude": 53.352889 }, "geometry": { "type": "Point", "coordinates": [ -6.392823, 53.352889 ] } },
{ "type": "Feature", "properties": { "OBJECTID": 6, "Park_ID": 150, "Location": "Liffey Valley Shopping Center Purple Car Park", "Road_Name": "Liffey Valley", "No_Of_Spaces": 26, "Space_Type": "Surface", "Longitude": -6.388934, "Latitude": 53.35481 }, "geometry": { "type": "Point", "coordinates": [ -6.388934, 53.35481 ] } },
{ "type": "Feature", "properties": { "OBJECTID": 7, "Park_ID": 151, "Location": "Hermitage Golf Course", "Road_Name": "Taylors Lane", "No_Of_Spaces": 1, "Space_Type": "Surface", "Longitude": -6.284019, "Latitude": 53.281491 }, "geometry": { "type": "Point", "coordinates": [ -6.284019, 53.281491000000102 ] } },
{ "type": "Feature", "properties": { "OBJECTID": 8, "Park_ID": 152, "Location": "Corkagh Park", "Road_Name": "Naas Road", "No_Of_Spaces": 3, "Space_Type": "Surface", "Longitude": -6.412811, "Latitude": 53.305457 }, "geometry": { "type": "Point", "coordinates": [ -6.412811, 53.305457 ] } },
{ "type": "Feature", "properties": { "OBJECTID": 9, "Park_ID": 153, "Location": "Adamstown", "Road_Name": "Adamstown Castle", "No_Of_Spaces": 1, "Space_Type": "Surface", "Longitude": -6.460547, "Latitude": 53.336096 }, "geometry": { "type": "Point", "coordinates": [ -6.460547, 53.336096 ] } },
{ "type": "Feature", "properties": { "OBJECTID": 10, "Park_ID": 154, "Location": "Newcastle Shopping Centre", "Road_Name": "Main Street Newcastle", "No_Of_Spaces": 2, "Space_Type": "Surface", "Longitude": -6.499128, "Latitude": 53.299914 }, "geometry": { "type": "Point", "coordinates": [ -6.499128, 53.299914000000101 ] } },
{ "type": "Feature", "properties": { "OBJECTID": 11, "Park_ID": 155, "Location": "The Square", "Road_Name": "Belgard Square East", "No_Of_Spaces": 24, "Space_Type": "Multi-Story", "Longitude": -6.370176, "Latitude": 53.287044 }, "geometry": { "type": "Point", "coordinates": [ -6.370176, 53.287044 ] } },
{ "type": "Feature", "properties": { "OBJECTID": 12, "Park_ID": 156, "Location": "National Basketball Arena", "Road_Name": "Tymon Park", "No_Of_Spaces": 4, "Space_Type": "Surface", "Longitude": -6.334039, "Latitude": 53.291968 }, "geometry": { "type": "Point", "coordinates": [ -6.334039, 53.291968 ] } },
{ "type": "Feature", "properties": { "OBJECTID": 13, "Park_ID": 157, "Location": "Tymon Park", "Road_Name": "Tymon North", "No_Of_Spaces": 4, "Space_Type": "Surface", "Longitude": -6.343757, "Latitude": 53.299402 }, "geometry": { "type": "Point", "coordinates": [ -6.343757, 53.299402 ] } },
{ "type": "Feature", "properties": { "OBJECTID": 14, "Park_ID": 158, "Location": "Coláiste de Híde", "Road_Name": "Tymon North", "No_Of_Spaces": 2, "Space_Type": "Surface", "Longitude": -6.347998, "Latitude": 53.300818 }, "geometry": { "type": "Point", "coordinates": [ -6.347998, 53.300818 ] } },
{ "type": "Feature", "properties": { "OBJECTID": 15, "Park_ID": 159, "Location": "Tallaght Institiute Of Technology", "Road_Name": "Belgard Road", "No_Of_Spaces": 2, "Space_Type": "Surface", "Longitude": -6.366723, "Latitude": 53.291399 }, "geometry": { "type": "Point", "coordinates": [ -6.366723, 53.291399 ] } },
{ "type": "Feature", "properties": { "OBJECTID": 16, "Park_ID": 160, "Location": "Brookfield Enterprise Center ", "Road_Name": "Brookfield", "No_Of_Spaces": 2, "Space_Type": "Surface", "Longitude": -6.403723, "Latitude": 53.288039 }, "geometry": { "type": "Point", "coordinates": [ -6.403723, 53.288039 ] } },
{ "type": "Feature", "properties": { "OBJECTID": 17, "Park_ID": 161, "Location": "Waterstown Park", "Road_Name": "Palmerston", "No_Of_Spaces": 10, "Space_Type": "Surface", "Longitude": -6.370119, "Latitude": 53.358394 }, "geometry": { "type": "Point", "coordinates": [ -6.370119, 53.358394 ] } },
{ "type": "Feature", "properties": { "OBJECTID": 18, "Park_ID": 162, "Location": "Ballyroan Library", "Road_Name": "Orchardstown Villas", "No_Of_Spaces": 1, "Space_Type": "Surface", "Longitude": -6.299308, "Latitude": 53.290456 }, "geometry": { "type": "Point", "coordinates": [ -6.299308, 53.290456 ] } },
{ "type": "Feature", "properties": { "OBJECTID": 19, "Park_ID": 163, "Location": "Tallaght Stadium", "Road_Name": "N81", "No_Of_Spaces": 14, "Space_Type": "Surface", "Longitude": -6.374275, "Latitude": 53.282496 }, "geometry": { "type": "Point", "coordinates": [ -6.374275, 53.282496 ] } },
{ "type": "Feature", "properties": { "OBJECTID": 20, "Park_ID": 164, "Location": "Tallaght Leisure Centre", "Road_Name": "Fortunestown Way", "No_Of_Spaces": 5, "Space_Type": "Surface", "Longitude": -6.392486, "Latitude": 53.283179 }, "geometry": { "type": "Point", "coordinates": [ -6.392486, 53.283179000000104 ] } },
{ "type": "Feature", "properties": { "OBJECTID": 21, "Park_ID": 165, "Location": "Clondalkin Leisure Centre", "Road_Name": "Old Nangor Road", "No_Of_Spaces": 5, "Space_Type": "Surface", "Longitude": -6.399675, "Latitude": 53.322239 }, "geometry": { "type": "Point", "coordinates": [ -6.399675, 53.322239000000103 ] } },
{ "type": "Feature", "properties": { "OBJECTID": 22, "Park_ID": 166, "Location": "Crematorium Temple", "Road_Name": "Ballymount", "No_Of_Spaces": 6, "Space_Type": "Surface", "Longitude": -6.375334, "Latitude": 53.310631 }, "geometry": { "type": "Point", "coordinates": [ -6.375334, 53.3106310000001 ] } },
{ "type": "Feature", "properties": { "OBJECTID": 23, "Park_ID": 172, "Location": "B&Q Liffey Valley", "Road_Name": "Liffey Valley Retail Park", "No_Of_Spaces": 10, "Space_Type": "Surface", "Longitude": -6.388305, "Latitude": 53.348853 }, "geometry": { "type": "Point", "coordinates": [ -6.388305, 53.348853 ] } },
{ "type": "Feature", "properties": { "OBJECTID": 24, "Park_ID": 173, "Location": "Tesco Rathcoole", "Road_Name": "Main Street Rathcoole", "No_Of_Spaces": 3, "Space_Type": "Surface", "Longitude": -6.467532, "Latitude": 53.281157 }, "geometry": { "type": "Point", "coordinates": [ -6.467532, 53.2811570000001 ] } },
{ "type": "Feature", "properties": { "OBJECTID": 25, "Park_ID": 176, "Location": "Whitechurch Library", "Road_Name": "Taylor's Lane", "No_Of_Spaces": 3, "Space_Type": "Surface", "Longitude": -6.37616, "Latitude": 53.348176 }, "geometry": { "type": "Point", "coordinates": [ -6.37616, 53.348176000000102 ] } },
{ "type": "Feature", "properties": { "OBJECTID": 26, "Park_ID": 177, "Location": "County Hall", "Road_Name": "Belgard Square", "No_Of_Spaces": 8, "Space_Type": "Surface", "Longitude": -6.372449, "Latitude": 53.288726 }, "geometry": { "type": "Point", "coordinates": [ -6.372449, 53.288726000000104 ] } },
{ "type": "Feature", "properties": { "OBJECTID": 27, "Park_ID": 178, "Location": "South Dublin County Council Civic Offices", "Road_Name": "Clondalkin", "No_Of_Spaces": 2, "Space_Type": "Surface", "Longitude": -6.394756, "Latitude": 53.323734 }, "geometry": { "type": "Point", "coordinates": [ -6.394756, 53.323734000000101 ] } },
{ "type": "Feature", "properties": { "OBJECTID": 28, "Park_ID": 180, "Location": "Fettercairn Community Centre", "Road_Name": "Fettercairn Road", "No_Of_Spaces": 2, "Space_Type": "Surface", "Longitude": -6.395109, "Latitude": 53.293064 }, "geometry": { "type": "Point", "coordinates": [ -6.395109, 53.293064000000101 ] } },
{ "type": "Feature", "properties": { "OBJECTID": 29, "Park_ID": 181, "Location": "Killinarden Community Centre", "Road_Name": "Killinarden", "No_Of_Spaces": 2, "Space_Type": "Surface", "Longitude": -6.379625, "Latitude": 53.275477 }, "geometry": { "type": "Point", "coordinates": [ -6.379625, 53.275477000000102 ] } },
{ "type": "Feature", "properties": { "OBJECTID": 30, "Park_ID": 182, "Location": "Quarryvale Community Centre", "Road_Name": "Greenfort Gardens, Tallaght", "No_Of_Spaces": 2, "Space_Type": "Surface", "Longitude": -6.399088, "Latitude": 53.350937 }, "geometry": { "type": "Point", "coordinates": [ -6.399088, 53.350937 ] } },
{ "type": "Feature", "properties": { "OBJECTID": 31, "Park_ID": 183, "Location": "Knockmitten Youth and Community Centre", "Road_Name": "Knockmitten Park, Clondalkin", "No_Of_Spaces": 1, "Space_Type": "Surface", "Longitude": -6.375667, "Latitude": 53.325061 }, "geometry": { "type": "Point", "coordinates": [ -6.375667, 53.325061 ] } },
{ "type": "Feature", "properties": { "OBJECTID": 32, "Park_ID": 184, "Location": "Saint Ronan's Community Centre", "Road_Name": "Deansrath, Clondalkin", "No_Of_Spaces": 2, "Space_Type": "Surface", "Longitude": -6.42426, "Latitude": 53.323241 }, "geometry": { "type": "Point", "coordinates": [ -6.42426, 53.323241000000102 ] } },
{ "type": "Feature", "properties": { "OBJECTID": 33, "Park_ID": 185, "Location": "Saint Aongus Community and Parish Centre", "Road_Name": "Castletymon Road, Tallaght", "No_Of_Spaces": 1, "Space_Type": "On Street", "Longitude": -6.342443, "Latitude": 53.294909 }, "geometry": { "type": "Point", "coordinates": [ -6.342443, 53.294909 ] } },
{ "type": "Feature", "properties": { "OBJECTID": 34, "Park_ID": 186, "Location": "Bawnogue Youth and Community Centre", "Road_Name": "Bawnogue Road, Clondalkin", "No_Of_Spaces": 4, "Space_Type": "Surface", "Longitude": -6.412788, "Latitude": 53.32507 }, "geometry": { "type": "Point", "coordinates": [ -6.412788, 53.32507 ] } },
{ "type": "Feature", "properties": { "OBJECTID": 35, "Park_ID": 187, "Location": "Jobstown Community Centre", "Road_Name": "Jobstown, Tallaght", "No_Of_Spaces": 2, "Space_Type": "Surface", "Longitude": -6.401462, "Latitude": 53.282631 }, "geometry": { "type": "Point", "coordinates": [ -6.401462, 53.282631 ] } },
{ "type": "Feature", "properties": { "OBJECTID": 36, "Park_ID": 188, "Location": "Earlsfort Residents Community Centre", "Road_Name": "Earlsfort Road, Lucan", "No_Of_Spaces": 1, "Space_Type": "Surface", "Longitude": -6.415487, "Latitude": 53.345378 }, "geometry": { "type": "Point", "coordinates": [ -6.415487, 53.345378 ] } },
{ "type": "Feature", "properties": { "OBJECTID": 37, "Park_ID": 189, "Location": "Killinarden Enterprise Park", "Road_Name": "Killinarden, Tallaght", "No_Of_Spaces": 2, "Space_Type": "Surface", "Longitude": -6.37823, "Latitude": 53.277033 }, "geometry": { "type": "Point", "coordinates": [ -6.37823, 53.277033000000102 ] } },
{ "type": "Feature", "properties": { "OBJECTID": 38, "Park_ID": 190, "Location": "Brookfield Enterprise Centre", "Road_Name": "Brookfield Road, Tallaght", "No_Of_Spaces": 2, "Space_Type": "Surface", "Longitude": -6.403717, "Latitude": 53.288037 }, "geometry": { "type": "Point", "coordinates": [ -6.403717, 53.288037 ] } },
{ "type": "Feature", "properties": { "OBJECTID": 39, "Park_ID": 191, "Location": "Kiltalown House", "Road_Name": "Elm Drive", "No_Of_Spaces": 2, "Space_Type": "Surface", "Longitude": -6.402774, "Latitude": 53.275547 }, "geometry": { "type": "Point", "coordinates": [ -6.402774, 53.275547000000103 ] } },
{ "type": "Feature", "properties": { "OBJECTID": 40, "Park_ID": 192, "Location": "Clondalkin Library", "Road_Name": "Floraville Avenue", "No_Of_Spaces": 2, "Space_Type": "On Street", "Longitude": -6.388804, "Latitude": 53.32044 }, "geometry": { "type": "Point", "coordinates": [ -6.388804, 53.32044 ] } },
{ "type": "Feature", "properties": { "OBJECTID": 41, "Park_ID": 195, "Location": "Castletymon Library", "Road_Name": "Castletymon SC, Tymon Road North, Tallaght, D24", "No_Of_Spaces": 2, "Space_Type": "Surface", "Longitude": -6.341904, "Latitude": 53.295591 }, "geometry": { "type": "Point", "coordinates": [ -6.341904, 53.295591000000101 ] } },
{ "type": "Feature", "properties": { "OBJECTID": 42, "Park_ID": 212, "Location": "Griffeen Valley Park- At Leisure Centre", "Road_Name": "Esker Lane", "No_Of_Spaces": 4, "Space_Type": "All", "Longitude": -6.437197, "Latitude": 53.347221 }, "geometry": { "type": "Point", "coordinates": [ -6.437197, 53.347221 ] } },
{ "type": "Feature", "properties": { "OBJECTID": 43, "Park_ID": 214, "Location": "Rathcoole Village", "Road_Name": "Main Street", "No_Of_Spaces": 1, "Space_Type": "On Street", "Longitude": -6.470427, "Latitude": 53.281228 }, "geometry": { "type": "Point", "coordinates": [ -6.470427, 53.281228 ] } },
{ "type": "Feature", "properties": { "OBJECTID": 44, "Park_ID": 215, "Location": "Lucan Village", "Road_Name": "Main Street", "No_Of_Spaces": 1, "Space_Type": "On Street", "Longitude": -6.450009, "Latitude": 53.357307 }, "geometry": { "type": "Point", "coordinates": [ -6.450009, 53.357307 ] } },
{ "type": "Feature", "properties": { "OBJECTID": 45, "Park_ID": 216, "Location": "Saint Joseph's College ", "Road_Name": "Lucan Road", "No_Of_Spaces": 1, "Space_Type": "Surface", "Longitude": -6.441199, "Latitude": 53.358286 }, "geometry": { "type": "Point", "coordinates": [ -6.441199, 53.358286 ] } },
{ "type": "Feature", "properties": { "OBJECTID": 46, "Park_ID": 217, "Location": "Palmerstown Village", "Road_Name": "Lower Kennelsfort Road", "No_Of_Spaces": 1, "Space_Type": "On Street", "Longitude": -6.370908, "Latitude": 53.355805 }, "geometry": { "type": "Point", "coordinates": [ -6.370908, 53.355805 ] } },
{ "type": "Feature", "properties": { "OBJECTID": 47, "Park_ID": 218, "Location": "Rathfarnham Village ", "Road_Name": "Main Street", "No_Of_Spaces": 1, "Space_Type": "On Street", "Longitude": -6.285759, "Latitude": 53.298331 }, "geometry": { "type": "Point", "coordinates": [ -6.285759, 53.298331 ] } },
{ "type": "Feature", "properties": { "OBJECTID": 48, "Park_ID": 219, "Location": "Rathfarnham Village", "Road_Name": "Main Street", "No_Of_Spaces": 1, "Space_Type": "On Street", "Longitude": -6.285532, "Latitude": 53.298661 }, "geometry": { "type": "Point", "coordinates": [ -6.285532, 53.298661 ] } },
{ "type": "Feature", "properties": { "OBJECTID": 49, "Park_ID": 220, "Location": "Rathfarnham Village", "Road_Name": "Main Street", "No_Of_Spaces": 1, "Space_Type": "On Street", "Longitude": -6.284548, "Latitude": 53.299721 }, "geometry": { "type": "Point", "coordinates": [ -6.284548, 53.299721 ] } },
{ "type": "Feature", "properties": { "OBJECTID": 50, "Park_ID": 221, "Location": "Rathfarnham Village", "Road_Name": "Main Street", "No_Of_Spaces": 1, "Space_Type": "On Street", "Longitude": -6.285187, "Latitude": 53.299105 }, "geometry": { "type": "Point", "coordinates": [ -6.285187, 53.299105 ] } },
{ "type": "Feature", "properties": { "OBJECTID": 51, "Park_ID": 222, "Location": "Red Cow Park and Ride", "Road_Name": "Naas Road", "No_Of_Spaces": 12, "Space_Type": "Surface", "Longitude": -6.369737, "Latitude": 53.31685 }, "geometry": { "type": "Point", "coordinates": [ -6.369737, 53.31685 ] } },
{ "type": "Feature", "properties": { "OBJECTID": 52, "Park_ID": 223, "Location": "Shopping area", "Road_Name": "Neilstown Road", "No_Of_Spaces": 1, "Space_Type": "On Street", "Longitude": -6.398281, "Latitude": 53.344427 }, "geometry": { "type": "Point", "coordinates": [ -6.398281, 53.344427000000103 ] } },
{ "type": "Feature", "properties": { "OBJECTID": 53, "Park_ID": 224, "Location": "Aras Rualach ", "Road_Name": "Neilstown Road", "No_Of_Spaces": 2, "Space_Type": "Surface", "Longitude": -6.398227, "Latitude": 53.344072 }, "geometry": { "type": "Point", "coordinates": [ -6.398227, 53.344072 ] } },
{ "type": "Feature", "properties": { "OBJECTID": 54, "Park_ID": 225, "Location": "Adamstown Rail Station", "Road_Name": "Station Road", "No_Of_Spaces": 16, "Space_Type": "On Street", "Longitude": -6.470557, "Latitude": 53.336314 }, "geometry": { "type": "Point", "coordinates": [ -6.470557, 53.336314000000101 ] } },
{ "type": "Feature", "properties": { "OBJECTID": 55, "Park_ID": 226, "Location": "Hazelhatch and Celbridge Station", "Road_Name": "Hazelhatch Road", "No_Of_Spaces": 21, "Space_Type": "Surface", "Longitude": -6.524036, "Latitude": 53.322382 }, "geometry": { "type": "Point", "coordinates": [ -6.524036, 53.322382 ] } },
{ "type": "Feature", "properties": { "OBJECTID": 56, "Park_ID": 227, "Location": "Clondalkin / Fonthill Rail Station", "Road_Name": "Fonthill Road", "No_Of_Spaces": 10, "Space_Type": "Surface", "Longitude": -6.405777, "Latitude": 53.333009 }, "geometry": { "type": "Point", "coordinates": [ -6.405777, 53.333009 ] } },
{ "type": "Feature", "properties": { "OBJECTID": 57, "Park_ID": 228, "Location": "Camac Valley Caravan and Camping Park", "Road_Name": "Camac Valley", "No_Of_Spaces": 2, "Space_Type": "Surface", "Longitude": -6.415119, "Latitude": 53.304565 }, "geometry": { "type": "Point", "coordinates": [ -6.415119, 53.304565000000103 ] } },
{ "type": "Feature", "properties": { "OBJECTID": 58, "Park_ID": 229, "Location": "Sean Walsh Park", "Road_Name": "Whitestown Road", "No_Of_Spaces": 1, "Space_Type": "Surface", "Longitude": -6.374073, "Latitude": 53.281816 }, "geometry": { "type": "Point", "coordinates": [ -6.374073, 53.281816 ] } },
{ "type": "Feature", "properties": { "OBJECTID": 59, "Park_ID": 230, "Location": "Lucan Demense", "Road_Name": "Lucan Celbridge Rd", "No_Of_Spaces": 2, "Space_Type": "Surface", "Longitude": -6.460918, "Latitude": 53.355661 }, "geometry": { "type": "Point", "coordinates": [ -6.460918, 53.355661 ] } },
{ "type": "Feature", "properties": { "OBJECTID": 60, "Park_ID": 231, "Location": "Griffeen Valley Park", "Road_Name": "Haydens Lane", "No_Of_Spaces": 4, "Space_Type": "Surface", "Longitude": -6.445103, "Latitude": 53.343828 }, "geometry": { "type": "Point", "coordinates": [ -6.445103, 53.343828 ] } },
{ "type": "Feature", "properties": { "OBJECTID": 61, "Park_ID": 232, "Location": "Bohernabreena Burial Ground", "Road_Name": "Bohernabreena", "No_Of_Spaces": 4, "Space_Type": "Surface", "Longitude": -6.356278, "Latitude": 53.266521 }, "geometry": { "type": "Point", "coordinates": [ -6.356278, 53.266521 ] } },
{ "type": "Feature", "properties": { "OBJECTID": 62, "Park_ID": 233, "Location": "Esker Burial Ground", "Road_Name": "Esker", "No_Of_Spaces": 2, "Space_Type": "Surface", "Longitude": -6.440428, "Latitude": 53.352978 }, "geometry": { "type": "Point", "coordinates": [ -6.440428, 53.3529780000001 ] } },
{ "type": "Feature", "properties": { "OBJECTID": 63, "Park_ID": 234, "Location": "Saggart Burial Ground", "Road_Name": "Saggart", "No_Of_Spaces": 2, "Space_Type": "Surface", "Longitude": -6.443659, "Latitude": 53.281273 }, "geometry": { "type": "Point", "coordinates": [ -6.443659, 53.281273 ] } },
{ "type": "Feature", "properties": { "OBJECTID": 64, "Park_ID": 235, "Location": "Griffeen Valley Park", "Road_Name": "Adamstown Road", "No_Of_Spaces": 4, "Space_Type": "Surface", "Longitude": -6.336361, "Latitude": 53.309646 }, "geometry": { "type": "Point", "coordinates": [ -6.336361, 53.309646 ] } },
{ "type": "Feature", "properties": { "OBJECTID": 65, "Park_ID": 236, "Location": "Dodder Valley Linear Park", "Road_Name": "Link road N81 to Firhouse Road", "No_Of_Spaces": 2, "Space_Type": "Surface", "Longitude": -6.316225, "Latitude": 53.291517 }, "geometry": { "type": "Point", "coordinates": [ -6.316225, 53.291517 ] } }
]
}
